[{"name":"Books by Bessie","street":"15 Main St.","city":"Palo Alto","state":"CA","postcode":"94303","balance":0.0,"lat":37.445013,"lng":-122.1391443},{"name":"Brosnahan Insurance Agency","street":"P.O. Box 5","city":"Middlefield","state":"CA","postcode":"94482","balance":241.23,"lat":43.8249453,"lng":-79.2639122},{"name":"Cal Telephone","street":"10 Main St.","city":"Palo Alto","state":"CA","postcode":"94303","balance":0.0,"lat":37.445013,"lng":-122.1391443},{"name":"Computers by Jenni","street":"1515 Main St.","city":"Middlefield","state":"CA","postcode":"94482","balance":0.0,"lat":37.3787808,"lng":-122.1158227},{"name":"Ellis Equipment Rental","street":"45896 Main St.","city":"Middlefield","state":"CA","postcode":"94303","balance":0.0,"lat":37.445013,"lng":-122.1391443},{"name":"Hall Properties","street":"P.O.Box 357","city":"South Orange","state":"NJ","postcode":"07079","balance":0.0,"lat":40.7489277,"lng":-74.2609903},{"name":"Hicks Hardware","street":"42 Main St.","city":"Middlefield","state":"CA","postcode":"94303","balance":0.0,"lat":37.445013,"lng":-122.1391443},{"name":"Lee Advertising","street":"53 Main St.","city":"Middlefield","state":"CA","postcode":"94303","balance":0.0,"lat":37.445013,"lng":-122.1391443},{"name":"National Eye Care","street":"123 Anywhere Ave","city":"Tucson","state":"AZ","postcode":"85704","balance":0.0,"lat":32.3477051,"lng":-110.9992777},{"name":"Norton Lumber and Building Materials","street":"4528 Country Road","city":"Middlefield","state":"CA","postcode":"94303","balance":205.0,"lat":37.3752919,"lng":-122.1692159},{"name":"PG&E","street":"4 Main St.","city":"Palo Alto","state":"CA","postcode":"94303","balance":86.44,"lat":37.445013,"lng":-122.1391443},{"name":"Pam Seitz","street":"P.O. Box 15","city":"Bayshore","state":"CA","postcode":"94326","balance":0.0,"lat":45.2720537,"lng":-79.7935909},{"name":"Robertson & Associates","street":"P.O. Box 147","city":"Bayshore","state":"CA","postcode":"94326","balance":315.0,"lat":45.2720537,"lng":-79.7935909},{"name":"Tania's Nursery","street":"1111 Elm St.","city":"Middlefield","state":"CA","postcode":"94482","balance":0.0,"lat":37.4604972,"lng":-122.1547528},{"name":"Tim Philip Masonry","street":"3948 Elm St.","city":"Middlefield","state":"CA","postcode":"94482","balance":0.0,"lat":37.4604972,"lng":-122.1547528},{"name":"United States Treasury","street":"5568 Capital Drive","city":"Tucson","state":"AZ","postcode":"85718","balance":0.0,"lat":32.3389931,"lng":-110.9268201}]